{
  "file": "./models/stations.json",
  "stations": [
    {
      "name": "test2",
      "userid": "dccd21c5-ab94-4b75-b0a2-a49f121e668e",
      "_id": "db30e7e7-0965-4a3b-aa60-e4ddec1f1729"
    },
    {
      "name": "test5",
      "userid": "dcfe8299-7072-4383-9e34-63591504c1be",
      "_id": "4641eea3-4139-4a41-ae60-97b739e98bf4"
    },
    {
      "name": "Test3",
      "userid": "dccd21c5-ab94-4b75-b0a2-a49f121e668e",
      "_id": "52420c9a-c09f-4ec9-959b-2e303151560d"
    },
    {
      "name": "test",
      "Latitude": 0,
      "Longitude": 0,
      "userid": "dcfe8299-7072-4383-9e34-63591504c1be",
      "_id": "44991a25-0192-49a8-8c63-1c4bf1c3f76c"
    },
    {
      "name": "test",
      "Latitude": 0,
      "Longitude": 0,
      "userid": "f8daaa16-d1a7-4b84-a3f6-948139200194",
      "_id": "ae17b0fe-3be9-4856-b414-aaaaddf4de38"
    },
    {
      "name": "London",
      "latitude": 44.34,
      "longitude": 10.99,
      "userid": "f0faa11a-139e-490e-b660-1870ae715c68",
      "_id": "07185526-69e6-44e3-9254-27f343dc2e5f"
    },
    {
      "weatherIcon": "../views/partials/icons/error.hbs",
      "code": 803,
      "temperature": "26.2",
      "windSpeed": 3.95,
      "pressure": 1012,
      "windDirection": "SW",
      "latitude": 3.6658,
      "longitude": 9.6419,
      "_id": "23af2198-d086-4ef7-8c1c-0ae30e74f7fe"
    },
    {
      "weatherIcon": "../views/partials/icons/error.hbs",
      "code": 801,
      "temperature": "37.6",
      "windSpeed": 6.17,
      "pressure": 1008,
      "windDirection": "E",
      "latitude": 41.6561,
      "longitude": -0.8773,
      "_id": "2c53402f-26dd-4b34-8885-ccd038fd82b0"
    },
    {
      "weatherIcon": "../views/partials/icons/error.hbs",
      "code": 801,
      "temperature": "37.6",
      "windSpeed": 6.17,
      "pressure": 1008,
      "windDirection": "E",
      "latitude": 41.6561,
      "longitude": -0.8773,
      "_id": "2754df62-0b4f-4975-b33e-3670be5de361"
    },
    {
      "weatherIcon": "../views/partials/icons/error.hbs",
      "code": 800,
      "temperature": "37.1",
      "windSpeed": 2.68,
      "pressure": 1009,
      "windDirection": "SSW",
      "latitude": 37.3824,
      "longitude": -5.9761,
      "_id": "501da26b-2574-41fe-9de6-e37862b72e88"
    },
    {
      "weatherIcon": "../views/partials/icons/error.hbs",
      "code": 803,
      "temperature": "26.8",
      "windSpeed": 2.06,
      "pressure": 1014,
      "windDirection": "NE",
      "latitude": 38.3452,
      "longitude": -0.4815,
      "_id": "0c874c0f-d7aa-4fcb-a9a9-17b05bd15039"
    },
    {
      "weatherIcon": "../views/partials/icons/error.hbs",
      "code": 803,
      "temperature": "26.8",
      "windSpeed": 2.06,
      "pressure": 1014,
      "windDirection": "NE",
      "latitude": 38.3452,
      "longitude": -0.4815,
      "_id": "e2a6d5bf-961f-4b58-b685-6866f8cc5dc4"
    },
    {
      "name": "londres",
      "latestReport": {
        "name": "londres",
        "latitude": 51.5085,
        "longitude": -0.1257,
        "weatherIcon": "../views/partials/icons/cloudy",
        "code": 801,
        "description": "few clouds",
        "temperature": "17.4",
        "tempFahrenheit": "63.0",
        "tempFeelsLike": 289.93,
        "tempMin": 289.1,
        "tempMax": 291.21,
        "windSpeed": 6.69,
        "windDirection": "SW",
        "windDirectionDegrees": 220,
        "pressure": 1018
      },
      "userid": "95a7eb66-813f-4e63-8ede-6487ca6ffdf3",
      "_id": "3bdee8ab-b053-445f-a310-ad42aaa9d719"
    },
    {
      "name": "madrid",
      "latestReport": {
        "name": "madrid",
        "latitude": 40.4165,
        "longitude": -3.7026,
        "weatherIcon": "../views/partials/icons/sun",
        "code": 800,
        "description": "clear sky",
        "temperature": "32.5",
        "tempFahrenheit": "90.2",
        "tempFeelsLike": 303.62,
        "tempMin": 303.66,
        "tempMax": 306.29,
        "windSpeed": 1.54,
        "windDirection": "SW",
        "windDirectionDegrees": 230,
        "pressure": 1012
      },
      "userid": "95a7eb66-813f-4e63-8ede-6487ca6ffdf3",
      "_id": "031facff-73af-4a20-9c39-274eef8ea219"
    }
  ]
}